[
    {
      "name": "Canada",
      "isoCode": "CA",
      "flag": "ðŸ‡¨ðŸ‡¦",
      "phonecode": "1",
      "currency": "CAD",
      "latitude": "60.00000000",
      "longitude": "-95.00000000"
    },
    {
      "name": "Germany",
      "isoCode": "DE",
      "flag": "ðŸ‡©ðŸ‡ª",
      "phonecode": "49",
      "currency": "EUR",
      "latitude": "51.00000000",
      "longitude": "9.00000000"
    },
    {
      "name": "United Kingdom",
      "isoCode": "GB",
      "flag": "ðŸ‡¬ðŸ‡§",
      "phonecode": "44",
      "currency": "GBP",
      "latitude": "54.00000000",
      "longitude": "-2.00000000"
    },
    {
      "name": "United States",
      "isoCode": "US",
      "flag": "ðŸ‡ºðŸ‡¸",
      "phonecode": "1",
      "currency": "USD",
      "latitude": "38.00000000",
      "longitude": "-97.00000000"
    },
    {
      "name": "Nigeria",
      "isoCode": "NG",
      "flag": "ðŸ‡³ðŸ‡¬",
      "phonecode": "234",
      "currency": "NGN",
      "latitude": "9.08199900",
      "longitude": "8.67528000"
    }
  ]
  